$GPGGA,085308.00,8959.46071237,S,08413.18842508,E,1,05,2.87,10.0000,M,00.000,M,,*45
$GPVTG,000.00,T,,M,000.000,N,000.000,K,A*3D
$GPGGA,085309.00,8959.46071237,S,08413.18842508,E,1,05,2.87,10.0000,M,00.000,M,,*44
$GPVTG,000.00,T,,M,000.000,N,000.000,K,A*3D
$GPGGA,085310.00,8959.46071237,S,08413.18842508,E,1,05,2.87,10.0000,M,00.000,M,,*4C
$GPVTG,000.00,T,,M,000.000,N,000.000,K,A*3D
$GPGGA,085311.00,8959.46071237,S,08413.18842508,E,1,05,2.87,10.0000,M,00.000,M,,*4D
$GPVTG,000.00,T,,M,000.000,N,000.000,K,A*3D
$GPGGA,085312.00,8959.46071237,S,08413.18842508,E,1,05,2.87,10.0000,M,00.000,M,,*4E
$GPVTG,000.00,T,,M,000.000,N,000.000,K,A*3D
$GPGGA,085313.00,8959.46071237,S,08413.18842508,E,1,05,2.87,10.0000,M,00.000,M,,*4F
$GPVTG,000.00,T,,M,000.000,N,000.000,K,A*3D
$GPGGA,085314.00,8959.46071237,S,08413.18842508,E,1,05,2.87,10.0000,M,00.000,M,,*48
$GPVTG,000.00,T,,M,000.000,N,000.000,K,A*3D
$GPGGA,085315.00,8959.46071237,S,08413.18842508,E,1,05,2.87,10.0000,M,00.000,M,,*49
$GPVTG,000.00,T,,M,000.000,N,000.000,K,A*3D
$GPGGA,085316.00,8959.46071237,S,08413.18842508,E,1,05,2.87,10.0000,M,00.000,M,,*4A
$GPVTG,000.00,T,,M,000.000,N,000.000,K,A*3D
$GPGGA,085317.00,8959.46071237,S,08413.18842508,E,1,05,2.87,10.0000,M,00.000,M,,*4B
$GPVTG,000.00,T,,M,000.000,N,000.000,K,A*3D
$GPGGA,085318.00,8959.46071237,S,08413.18842508,E,1,05,2.87,10.0000,M,00.000,M,,*44
$GPVTG,000.00,T,,M,000.000,N,000.000,K,A*3D
$GPGGA,085319.00,8959.46071237,S,08413.18842508,E,1,05,2.87,10.0000,M,00.000,M,,*45
$GPVTG,000.00,T,,M,000.000,N,000.000,K,A*3D
$GPGGA,085320.00,8959.46071237,S,08413.18842508,E,1,05,2.87,10.0000,M,00.000,M,,*4F
$GPVTG,000.00,T,,M,000.000,N,000.000,K,A*3D
$GPGGA,085321.00,8959.46071237,S,08413.18842508,E,1,05,2.87,10.0000,M,00.000,M,,*4E
$GPVTG,000.00,T,,M,000.000,N,000.000,K,A*3D
$GPGGA,085322.00,8959.46071237,S,08413.18842508,E,1,05,2.87,10.0000,M,00.000,M,,*4D
$GPVTG,000.00,T,,M,000.000,N,000.000,K,A*3D
$GPGGA,085323.00,8959.46071237,S,08413.18842508,E,1,05,2.87,10.0000,M,00.000,M,,*4C
$GPVTG,000.00,T,,M,000.000,N,000.000,K,A*3D
$GPGGA,085324.00,8959.46071237,S,08413.18842508,E,1,05,2.87,10.0000,M,00.000,M,,*4B
$GPVTG,000.00,T,,M,000.000,N,000.000,K,A*3D
$GPGGA,085325.00,8959.46071237,S,08413.18842508,E,1,05,2.87,10.0000,M,00.000,M,,*4A
$GPVTG,000.00,T,,M,000.000,N,000.000,K,A*3D
$GPGGA,085326.00,8959.46071237,S,08413.18842508,E,1,05,2.87,10.0000,M,00.000,M,,*49
$GPVTG,000.00,T,,M,000.000,N,000.000,K,A*3D
$GPGGA,085327.00,8959.46071237,S,08413.18842508,E,1,05,2.87,10.0000,M,00.000,M,,*48
$GPVTG,000.00,T,,M,000.000,N,000.000,K,A*3D
$GPGGA,085328.00,8959.46071237,S,08413.18842508,E,1,05,2.87,10.0000,M,00.000,M,,*47
$GPVTG,000.00,T,,M,000.000,N,000.000,K,A*3D
$GPGGA,085329.00,8959.46071237,S,08413.18842508,E,1,05,2.87,10.0000,M,00.000,M,,*46
$GPVTG,000.00,T,,M,000.000,N,000.000,K,A*3D
$GPGGA,085330.00,8959.46071237,S,08413.18842508,E,1,05,2.87,10.0000,M,00.000,M,,*4E
$GPVTG,000.00,T,,M,000.000,N,000.000,K,A*3D
$GPGGA,085331.00,8959.46071237,S,08413.18842508,E,1,05,2.87,10.0000,M,00.000,M,,*4F
$GPVTG,000.00,T,,M,000.000,N,000.000,K,A*3D
$GPGGA,085332.00,8959.46071237,S,08413.18842508,E,1,05,2.87,10.0000,M,00.000,M,,*4C
$GPVTG,000.00,T,,M,000.000,N,000.000,K,A*3D
$GPGGA,085333.00,8959.46071237,S,08413.18842508,E,1,05,2.87,10.0000,M,00.000,M,,*4D
$GPVTG,000.00,T,,M,000.000,N,000.000,K,A*3D
$GPGGA,085334.00,8959.46071237,S,08413.18842508,E,1,05,2.87,10.0000,M,00.000,M,,*4A
$GPVTG,000.00,T,,M,000.000,N,000.000,K,A*3D
$GPGGA,085335.00,8959.46071237,S,08413.18842508,E,1,05,2.87,10.0000,M,00.000,M,,*4B
$GPVTG,000.00,T,,M,000.000,N,000.000,K,A*3D
$GPGGA,085336.00,8959.46071237,S,08413.18842508,E,1,05,2.87,10.0000,M,00.000,M,,*48
$GPVTG,000.00,T,,M,000.000,N,000.000,K,A*3D
$GPGGA,085337.00,8959.46071237,S,08413.18842508,E,1,05,2.87,10.0000,M,00.000,M,,*49
$GPVTG,000.00,T,,M,000.000,N,000.000,K,A*3D
$GPGGA,085338.00,8959.46071237,S,08413.18842508,E,1,05,2.87,10.0000,M,00.000,M,,*46
$GPVTG,000.00,T,,M,000.000,N,000.000,K,A*3D
$GPGGA,085339.00,8959.46071237,S,08413.18842508,E,1,05,2.87,10.0000,M,00.000,M,,*47
$GPVTG,000.00,T,,M,000.000,N,000.000,K,A*3D
$GPGGA,085340.00,8959.46071237,S,08413.18842508,E,1,05,2.87,10.0000,M,00.000,M,,*49
$GPVTG,000.00,T,,M,000.000,N,000.000,K,A*3D
$GPGGA,085341.00,8959.46071237,S,08413.18842508,E,1,05,2.87,10.0000,M,00.000,M,,*48
$GPVTG,000.00,T,,M,000.000,N,000.000,K,A*3D
$GPGGA,085342.00,8959.46071237,S,08413.18842508,E,1,05,2.87,10.0000,M,00.000,M,,*4B
$GPVTG,000.00,T,,M,000.000,N,000.000,K,A*3D
$GPGGA,085343.00,8959.46071237,S,08413.18842508,E,1,05,2.87,10.0000,M,00.000,M,,*4A
$GPVTG,000.00,T,,M,000.000,N,000.000,K,A*3D
$GPGGA,085344.00,8959.46071237,S,08413.18842508,E,1,05,2.87,10.0000,M,00.000,M,,*4D
$GPVTG,000.00,T,,M,000.000,N,000.000,K,A*3D
$GPGGA,085345.00,8959.46071237,S,08413.18842508,E,1,05,2.87,10.0000,M,00.000,M,,*4C
$GPVTG,000.00,T,,M,000.000,N,000.000,K,A*3D
$GPGGA,085346.00,8959.46071237,S,08413.18842508,E,1,05,2.87,10.0000,M,00.000,M,,*4F
$GPVTG,000.00,T,,M,000.000,N,000.000,K,A*3D
$GPGGA,085347.00,8959.46071237,S,08413.18842508,E,1,05,2.87,10.0000,M,00.000,M,,*4E
$GPVTG,000.00,T,,M,000.000,N,000.000,K,A*3D
$GPGGA,085348.00,8959.46071237,S,08413.18842508,E,1,05,2.87,10.0000,M,00.000,M,,*41
$GPVTG,000.00,T,,M,000.000,N,000.000,K,A*3D
$GPGGA,085349.00,8959.46071237,S,08413.18842508,E,1,05,2.87,10.0000,M,00.000,M,,*40
$GPVTG,000.00,T,,M,000.000,N,000.000,K,A*3D
$GPGGA,085350.00,8959.46071237,S,08413.18842508,E,1,05,2.87,10.0000,M,00.000,M,,*48
$GPVTG,000.00,T,,M,000.000,N,000.000,K,A*3D
$GPGGA,085351.00,8959.46071237,S,08413.18842508,E,1,05,2.87,10.0000,M,00.000,M,,*49
$GPVTG,000.00,T,,M,000.000,N,000.000,K,A*3D
$GPGGA,085352.00,8959.46071237,S,08413.18842508,E,1,05,2.87,10.0000,M,00.000,M,,*4A
$GPVTG,000.00,T,,M,000.000,N,000.000,K,A*3D
$GPGGA,085353.00,8959.46071237,S,08413.18842508,E,1,05,2.87,10.0000,M,00.000,M,,*4B
$GPVTG,000.00,T,,M,000.000,N,000.000,K,A*3D
$GPGGA,085354.00,8959.46071237,S,08413.18842508,E,1,05,2.87,10.0000,M,00.000,M,,*4C
$GPVTG,000.00,T,,M,000.000,N,000.000,K,A*3D
$GPGGA,085355.00,8959.46071237,S,08413.18842508,E,1,05,2.87,10.0000,M,00.000,M,,*4D
$GPVTG,000.00,T,,M,000.000,N,000.000,K,A*3D
$GPGGA,085356.00,8959.46071237,S,08413.18842508,E,1,05,2.87,10.0000,M,00.000,M,,*4E
$GPVTG,000.00,T,,M,000.000,N,000.000,K,A*3D
$GPGGA,085357.00,8959.46071237,S,08413.18842508,E,1,05,2.87,10.0000,M,00.000,M,,*4F
$GPVTG,000.00,T,,M,000.000,N,000.000,K,A*3D
$GPGGA,085358.00,8959.46071237,S,08413.18842508,E,1,05,2.87,10.0000,M,00.000,M,,*40
$GPVTG,000.00,T,,M,000.000,N,000.000,K,A*3D
$GPGGA,085359.00,8959.46071237,S,08413.18842508,E,1,05,2.87,10.0000,M,00.000,M,,*41
$GPVTG,000.00,T,,M,000.000,N,000.000,K,A*3D
$GPGGA,085400.00,8959.46071237,S,08413.18842508,E,1,05,2.87,10.0000,M,00.000,M,,*4A
$GPVTG,000.00,T,,M,000.000,N,000.000,K,A*3D
$GPGGA,085401.00,8959.46071237,S,08413.18842508,E,1,05,2.87,10.0000,M,00.000,M,,*4B
$GPVTG,000.00,T,,M,000.000,N,000.000,K,A*3D
$GPGGA,085402.00,8959.46071237,S,08413.18842508,E,1,05,2.87,10.0000,M,00.000,M,,*48
$GPVTG,000.00,T,,M,000.000,N,000.000,K,A*3D
$GPGGA,085403.00,8959.46071237,S,08413.18842508,E,1,05,2.87,10.0000,M,00.000,M,,*49
$GPVTG,000.00,T,,M,000.000,N,000.000,K,A*3D
$GPGGA,085404.00,8959.46071237,S,08413.18842508,E,1,05,2.87,10.0000,M,00.000,M,,*4E
$GPVTG,000.00,T,,M,000.000,N,000.000,K,A*3D
$GPGGA,085405.00,8959.46071237,S,08413.18842508,E,1,05,2.87,10.0000,M,00.000,M,,*4F
$GPVTG,000.00,T,,M,000.000,N,000.000,K,A*3D
$GPGGA,085406.00,8959.46071237,S,08413.18842508,E,1,05,2.87,10.0000,M,00.000,M,,*4C
$GPVTG,000.00,T,,M,000.000,N,000.000,K,A*3D
$GPGGA,085407.00,8959.46071237,S,08413.18842508,E,1,05,2.87,10.0000,M,00.000,M,,*4D
$GPVTG,000.00,T,,M,000.000,N,000.000,K,A*3D
$GPGGA,085408.00,8959.46071237,S,08413.18842508,E,1,05,2.87,10.0000,M,00.000,M,,*42
$GPVTG,000.00,T,,M,000.000,N,000.000,K,A*3D
$GPGGA,085409.00,8959.46071237,S,08413.18842508,E,1,05,2.87,10.0000,M,00.000,M,,*43
$GPVTG,000.00,T,,M,000.000,N,000.000,K,A*3D
$GPGGA,085410.00,8959.46071237,S,08413.18842508,E,1,05,2.87,10.0000,M,00.000,M,,*4B
$GPVTG,000.00,T,,M,000.000,N,000.000,K,A*3D
$GPGGA,085411.00,8959.46071237,S,08413.18842508,E,1,05,2.87,10.0000,M,00.000,M,,*4A
$GPVTG,000.00,T,,M,000.000,N,000.000,K,A*3D
$GPGGA,085412.00,8959.46071237,S,08413.18842508,E,1,05,2.87,10.0000,M,00.000,M,,*49
$GPVTG,000.00,T,,M,000.000,N,000.000,K,A*3D
$GPGGA,085413.00,8959.46071237,S,08413.18842508,E,1,05,2.87,10.0000,M,00.000,M,,*48
$GPVTG,000.00,T,,M,000.000,N,000.000,K,A*3D
$GPGGA,085414.00,8959.46071237,S,08413.18842508,E,1,05,2.87,10.0000,M,00.000,M,,*4F
$GPVTG,000.00,T,,M,000.000,N,000.000,K,A*3D
$GPGGA,085415.00,8959.46071237,S,08413.18842508,E,1,05,2.87,10.0000,M,00.000,M,,*4E
$GPVTG,000.00,T,,M,000.000,N,000.000,K,A*3D
$GPGGA,085416.00,8959.46071237,S,08413.18842508,E,1,05,2.87,10.0000,M,00.000,M,,*4D
$GPVTG,000.00,T,,M,000.000,N,000.000,K,A*3D
$GPGGA,085417.00,8959.46071237,S,08413.18842508,E,1,05,2.87,10.0000,M,00.000,M,,*4C
$GPVTG,000.00,T,,M,000.000,N,000.000,K,A*3D
$GPGGA,085418.00,8959.46071237,S,08413.18842508,E,1,05,2.87,10.0000,M,00.000,M,,*43
$GPVTG,000.00,T,,M,000.000,N,000.000,K,A*3D
$GPGGA,085419.00,8959.46071237,S,08413.18842508,E,1,05,2.87,10.0000,M,00.000,M,,*42
$GPVTG,000.00,T,,M,000.000,N,000.000,K,A*3D
$GPGGA,085420.00,8959.46071237,S,08413.18842508,E,1,05,2.87,10.0000,M,00.000,M,,*48
$GPVTG,000.00,T,,M,000.000,N,000.000,K,A*3D
$GPGGA,085421.00,8959.46071237,S,08413.18842508,E,1,05,2.87,10.0000,M,00.000,M,,*49
$GPVTG,000.00,T,,M,000.000,N,000.000,K,A*3D
$GPGGA,085422.00,8959.46071237,S,08413.18842508,E,1,05,2.87,10.0000,M,00.000,M,,*4A
$GPVTG,000.00,T,,M,000.000,N,000.000,K,A*3D
$GPGGA,085423.00,8959.46071237,S,08413.18842508,E,1,05,2.87,10.0000,M,00.000,M,,*4B
$GPVTG,000.00,T,,M,000.000,N,000.000,K,A*3D
$GPGGA,085424.00,8959.46071237,S,08413.18842508,E,1,05,2.87,10.0000,M,00.000,M,,*4C
$GPVTG,000.00,T,,M,000.000,N,000.000,K,A*3D
$GPGGA,085425.00,8959.46071237,S,08413.18842508,E,1,05,2.87,10.0000,M,00.000,M,,*4D
$GPVTG,000.00,T,,M,000.000,N,000.000,K,A*3D
$GPGGA,085426.00,8959.46071237,S,08413.18842508,E,1,05,2.87,10.0000,M,00.000,M,,*4E
$GPVTG,000.00,T,,M,000.000,N,000.000,K,A*3D
$GPGGA,085427.00,8959.46071237,S,08413.18842508,E,1,05,2.87,10.0000,M,00.000,M,,*4F
$GPVTG,000.00,T,,M,000.000,N,000.000,K,A*3D
$GPGGA,085428.00,8959.46071237,S,08413.18842508,E,1,05,2.87,10.0000,M,00.000,M,,*40
$GPVTG,000.00,T,,M,000.000,N,000.000,K,A*3D
$GPGGA,085429.00,8959.46071237,S,08413.18842508,E,1,05,2.87,10.0000,M,00.000,M,,*41
$GPVTG,000.00,T,,M,000.000,N,000.000,K,A*3D
$GPGGA,085430.00,8959.46071237,S,08413.18842508,E,1,05,2.87,10.0000,M,00.000,M,,*49
$GPVTG,000.00,T,,M,000.000,N,000.000,K,A*3D
$GPGGA,085431.00,8959.46071237,S,08413.18842508,E,1,05,2.87,10.0000,M,00.000,M,,*48
$GPVTG,000.00,T,,M,000.000,N,000.000,K,A*3D
$GPGGA,085432.00,8959.46071237,S,08413.18842508,E,1,05,2.87,10.0000,M,00.000,M,,*4B
$GPVTG,000.00,T,,M,000.000,N,000.000,K,A*3D
$GPGGA,085433.00,8959.46071237,S,08413.18842508,E,1,05,2.87,10.0000,M,00.000,M,,*4A
$GPVTG,000.00,T,,M,000.000,N,000.000,K,A*3D
$GPGGA,085434.00,8959.46071237,S,08413.18842508,E,1,05,2.87,10.0000,M,00.000,M,,*4D
$GPVTG,000.00,T,,M,000.000,N,000.000,K,A*3D
$GPGGA,085435.00,8959.46071237,S,08413.18842508,E,1,05,2.87,10.0000,M,00.000,M,,*4C
$GPVTG,000.00,T,,M,000.000,N,000.000,K,A*3D
$GPGGA,085436.00,8959.46071237,S,08413.18842508,E,1,05,2.87,10.0000,M,00.000,M,,*4F
$GPVTG,000.00,T,,M,000.000,N,000.000,K,A*3D
$GPGGA,085437.00,8959.46071237,S,08413.18842508,E,1,05,2.87,10.0000,M,00.000,M,,*4E
$GPVTG,000.00,T,,M,000.000,N,000.000,K,A*3D
$GPGGA,085438.00,8959.46071237,S,08413.18842508,E,1,05,2.87,10.0000,M,00.000,M,,*41
$GPVTG,000.00,T,,M,000.000,N,000.000,K,A*3D
$GPGGA,085439.00,8959.46071237,S,08413.18842508,E,1,05,2.87,10.0000,M,00.000,M,,*40
$GPVTG,000.00,T,,M,000.000,N,000.000,K,A*3D
$GPGGA,085440.00,8959.46071237,S,08413.18842508,E,1,05,2.87,10.0000,M,00.000,M,,*4E
$GPVTG,000.00,T,,M,000.000,N,000.000,K,A*3D
$GPGGA,085441.00,8959.46071237,S,08413.18842508,E,1,05,2.87,10.0000,M,00.000,M,,*4F
$GPVTG,000.00,T,,M,000.000,N,000.000,K,A*3D
$GPGGA,085442.00,8959.46071237,S,08413.18842508,E,1,05,2.87,10.0000,M,00.000,M,,*4C
$GPVTG,000.00,T,,M,000.000,N,000.000,K,A*3D
$GPGGA,085443.00,8959.46071237,S,08413.18842508,E,1,05,2.87,10.0000,M,00.000,M,,*4D
$GPVTG,000.00,T,,M,000.000,N,000.000,K,A*3D
$GPGGA,085444.00,8959.46071237,S,08413.18842508,E,1,05,2.87,10.0000,M,00.000,M,,*4A
$GPVTG,000.00,T,,M,000.000,N,000.000,K,A*3D
$GPGGA,085445.00,8959.46071237,S,08413.18842508,E,1,05,2.87,10.0000,M,00.000,M,,*4B
$GPVTG,000.00,T,,M,000.000,N,000.000,K,A*3D
$GPGGA,085446.00,8959.46071237,S,08413.18842508,E,1,05,2.87,10.0000,M,00.000,M,,*48
$GPVTG,000.00,T,,M,000.000,N,000.000,K,A*3D
$GPGGA,085447.00,8959.46071237,S,08413.18842508,E,1,05,2.87,10.0000,M,00.000,M,,*49
$GPVTG,000.00,T,,M,000.000,N,000.000,K,A*3D
$GPGGA,085448.00,8959.46071237,S,08413.18842508,E,1,05,2.87,10.0000,M,00.000,M,,*46
$GPVTG,000.00,T,,M,000.000,N,000.000,K,A*3D
$GPGGA,085449.00,8959.46071231,S,08414.76656527,E,1,05,2.87,10.0000,M,00.000,M,,*48
$GPVTG,000.00,T,,M,001.836,N,003.400,K,A*36
$GPGGA,085450.00,8959.46071139,S,08419.65712629,E,1,05,2.87,10.0000,M,00.000,M,,*48
$GPVTG,000.00,T,,M,003.717,N,006.883,K,A*3A
$GPGGA,085451.00,8959.46070740,S,08427.86134190,E,1,05,2.87,10.0000,M,00.000,M,,*47
$GPVTG,000.00,T,,M,005.598,N,010.367,K,A*3F
$GPGGA,085452.00,8959.46069661,S,08439.37894858,E,1,05,2.87,10.0000,M,00.000,M,,*45
$GPVTG,000.00,T,,M,007.479,N,013.851,K,A*3E
$GPGGA,085453.00,8959.46067380,S,08454.20925796,E,1,05,2.87,10.0000,M,00.000,M,,*4B
$GPVTG,000.00,T,,M,009.360,N,017.335,K,A*32
$GPGGA,085454.00,8959.46063225,S,08512.35083622,E,1,05,2.87,10.0000,M,00.000,M,,*4A
$GPVTG,000.00,T,,M,011.241,N,020.818,K,A*39
$GPGGA,085455.00,8959.46056372,S,08533.80109174,E,1,05,2.87,10.0000,M,00.000,M,,*44
$GPVTG,000.00,T,,M,013.122,N,024.302,K,A*39
$GPGGA,085456.00,8959.46045851,S,08558.55577242,E,1,05,2.87,10.0000,M,00.000,M,,*41
$GPVTG,000.00,T,,M,015.003,N,027.786,K,A*36
$GPGGA,085457.00,8959.46030539,S,08626.60837424,E,1,05,2.87,10.0000,M,00.000,M,,*42
$GPVTG,000.00,T,,M,016.884,N,031.270,K,A*39
$GPGGA,085458.00,8959.46009169,S,08657.94946428,E,1,05,2.87,10.0000,M,00.000,M,,*40
$GPVTG,000.00,T,,M,018.765,N,034.753,K,A*36
$GPGGA,085459.00,8959.45980326,S,08732.56592266,E,1,05,2.87,10.0000,M,00.000,M,,*46
$GPVTG,000.00,T,,M,020.646,N,038.237,K,A*36
$GPGGA,085500.00,8959.45942450,S,08810.44011002,E,1,05,2.87,10.0000,M,00.000,M,,*41
$GPVTG,000.00,T,,M,022.527,N,041.721,K,A*3C
$GPGGA,085501.00,8959.45893842,S,08851.54896951,E,1,05,2.87,10.0000,M,00.000,M,,*4E
$GPVTG,000.00,T,,M,024.408,N,045.205,K,A*31
$GPGGA,085502.00,8959.45832662,S,08935.86307520,E,1,05,2.87,10.0000,M,00.000,M,,*4F
$GPVTG,000.00,T,,M,026.290,N,048.688,K,A*38
$GPGGA,085503.00,8959.45758030,S,09022.70587024,E,1,05,2.87,10.0000,M,00.000,M,,*44
$GPVTG,000.00,T,,M,026.995,N,049.995,K,A*34
$GPGGA,085504.00,8959.45672912,S,09109.64140339,E,1,05,2.87,10.0000,M,00.000,M,,*4E
$GPVTG,000.00,T,,M,026.995,N,049.995,K,A*34
$GPGGA,085505.00,8959.45577701,S,09156.42140617,E,1,05,2.87,10.0000,M,00.000,M,,*42
$GPVTG,000.00,T,,M,026.995,N,049.995,K,A*34
$GPGGA,085506.00,8959.45472449,S,09243.02941792,E,1,05,2.87,10.0000,M,00.000,M,,*4C
$GPVTG,000.00,T,,M,026.995,N,049.995,K,A*34
$GPGGA,085507.00,8959.45357214,S,09329.44935155,E,1,05,2.87,10.0000,M,00.000,M,,*42
$GPVTG,000.00,T,,M,026.995,N,049.995,K,A*34
$GPGGA,085508.00,8959.45232058,S,09415.66552365,E,1,05,2.87,10.0000,M,00.000,M,,*41
$GPVTG,000.00,T,,M,026.995,N,049.995,K,A*34
$GPGGA,085509.00,8959.45097051,S,09501.66268266,E,1,05,2.87,10.0000,M,00.000,M,,*4C
$GPVTG,000.00,T,,M,026.995,N,049.995,K,A*34
$GPGGA,085510.00,8959.44952263,S,09547.42603463,E,1,05,2.87,10.0000,M,00.000,M,,*48
$GPVTG,000.00,T,,M,026.995,N,049.995,K,A*34
$GPGGA,085511.00,8959.44797773,S,09632.94126693,E,1,05,2.87,10.0000,M,00.000,M,,*4D
$GPVTG,000.00,T,,M,026.995,N,049.995,K,A*34
$GPGGA,085512.00,8959.44633661,S,09718.19456940,E,1,05,2.87,10.0000,M,00.000,M,,*4C
$GPVTG,000.00,T,,M,026.995,N,049.995,K,A*34
$GPGGA,085513.00,8959.44452027,S,09805.17716322,E,1,05,2.87,10.0000,M,00.000,M,,*48
$GPVTG,000.00,T,,M,032.218,N,059.667,K,A*3C
$GPGGA,085514.00,8959.44190349,S,09908.13464605,E,1,05,2.87,10.0000,M,00.000,M,,*41
$GPVTG,000.00,T,,M,043.969,N,081.430,K,A*32
$GPGGA,085515.00,8959.43819992,S,10029.58915759,E,1,05,2.87,10.0000,M,00.000,M,,*4D
$GPVTG,000.00,T,,M,055.719,N,103.192,K,A*3A
$GPGGA,085516.00,8959.43319409,S,10208.70441554,E,1,05,2.87,10.0000,M,00.000,M,,*42
$GPVTG,000.00,T,,M,067.470,N,124.955,K,A*31
$GPGGA,085517.00,8959.42663084,S,10404.35279814,E,1,05,2.87,10.0000,M,00.000,M,,*44
$GPVTG,000.00,T,,M,079.221,N,146.717,K,A*30
$GPGGA,085518.00,8959.41822339,S,10615.08344987,E,1,05,2.87,10.0000,M,00.000,M,,*4E
$GPVTG,000.00,T,,M,090.972,N,168.479,K,A*3D
$GPGGA,085519.00,8959.40766343,S,10839.10960614,E,1,05,2.87,10.0000,M,00.000,M,,*4C
$GPVTG,000.00,T,,M,102.722,N,190.242,K,A*35
$GPGGA,085520.00,8959.39498184,S,11112.07620320,E,1,05,2.87,10.0000,M,00.000,M,,*4D
$GPVTG,358.73,T,,M,107.970,N,199.960,K,A*31
$GPGGA,085521.00,8959.38218766,S,11343.63078702,E,1,05,2.87,10.0000,M,00.000,M,,*42
$GPVTG,355.55,T,,M,107.970,N,199.960,K,A*38
$GPGGA,085522.00,8959.36971218,S,11612.93677829,E,1,05,2.87,10.0000,M,00.000,M,,*46
$GPVTG,352.37,T,,M,107.970,N,199.960,K,A*3B
$GPGGA,085523.00,8959.35757422,S,11840.18012341,E,1,05,2.87,10.0000,M,00.000,M,,*4B
$GPVTG,349.19,T,,M,107.970,N,199.960,K,A*3D
$GPGGA,085524.00,8959.34579141,S,12105.53040941,E,1,05,2.87,10.0000,M,00.000,M,,*4A
$GPVTG,346.01,T,,M,107.970,N,199.960,K,A*3B
$GPGGA,085525.00,8959.33438029,S,12329.14260301,E,1,05,2.87,10.0000,M,00.000,M,,*46
$GPVTG,342.82,T,,M,107.970,N,199.960,K,A*34
$GPGGA,085526.00,8959.32335638,S,12551.15860395,E,1,05,2.87,10.0000,M,00.000,M,,*47
$GPVTG,339.64,T,,M,107.970,N,199.960,K,A*30
$GPGGA,085527.00,8959.31273424,S,12811.70863144,E,1,05,2.87,10.0000,M,00.000,M,,*4E
$GPVTG,336.46,T,,M,107.970,N,199.960,K,A*3F
$GPGGA,085528.00,8959.30252756,S,13030.91246129,E,1,05,2.87,10.0000,M,00.000,M,,*46
$GPVTG,333.28,T,,M,107.970,N,199.960,K,A*32
$GPGGA,085529.00,8959.29274917,S,13248.88053030,E,1,05,2.87,10.0000,M,00.000,M,,*4A
$GPVTG,330.09,T,,M,107.970,N,199.960,K,A*32
$GPGGA,085530.00,8959.28341109,S,13505.71492280,E,1,05,2.87,10.0000,M,00.000,M,,*4B
$GPVTG,326.91,T,,M,107.970,N,199.960,K,A*34
$GPGGA,085531.00,8959.27452459,S,13721.51025295,E,1,05,2.87,10.0000,M,00.000,M,,*4A
$GPVTG,323.73,T,,M,107.970,N,199.960,K,A*3D
$GPGGA,085532.00,8959.26610019,S,13936.35445513,E,1,05,2.87,10.0000,M,00.000,M,,*4D
$GPVTG,320.55,T,,M,107.970,N,199.960,K,A*3A
$GPGGA,085533.00,8959.25814771,S,14150.32949314,E,1,05,2.87,10.0000,M,00.000,M,,*44
$GPVTG,317.36,T,,M,107.970,N,199.960,K,A*3B
$GPGGA,085534.00,8959.25067628,S,14403.51199815,E,1,05,2.87,10.0000,M,00.000,M,,*4B
$GPVTG,314.18,T,,M,107.970,N,199.960,K,A*34
$GPGGA,085535.00,8959.24369435,S,14615.97384389,E,1,05,2.87,10.0000,M,00.000,M,,*47
$GPVTG,311.00,T,,M,107.970,N,199.960,K,A*38
$GPGGA,085536.00,8959.23720974,S,14827.78266683,E,1,05,2.87,10.0000,M,00.000,M,,*4E
$GPVTG,307.82,T,,M,107.970,N,199.960,K,A*35
$GPGGA,085537.00,8959.23122963,S,15039.00233821,E,1,05,2.87,10.0000,M,00.000,M,,*42
$GPVTG,304.63,T,,M,107.970,N,199.960,K,A*39
$GPGGA,085538.00,8959.22576057,S,15249.69339393,E,1,05,2.87,10.0000,M,00.000,M,,*44
$GPVTG,301.45,T,,M,107.970,N,199.960,K,A*38
$GPGGA,085539.00,8959.22080850,S,15459.91342768,E,1,05,2.87,10.0000,M,00.000,M,,*4A
$GPVTG,298.27,T,,M,107.970,N,199.960,K,A*3D
$GPGGA,085540.00,8959.21637875,S,15709.71745224,E,1,05,2.87,10.0000,M,00.000,M,,*4C
$GPVTG,295.09,T,,M,107.970,N,199.960,K,A*3C
$GPGGA,085541.00,8959.21247608,S,15919.15823317,E,1,05,2.87,10.0000,M,00.000,M,,*49
$GPVTG,291.90,T,,M,107.970,N,199.960,K,A*38
$GPGGA,085542.00,8959.20910464,S,16128.28659882,E,1,05,2.87,10.0000,M,00.000,M,,*49
$GPVTG,288.72,T,,M,107.970,N,199.960,K,A*3C
$GPGGA,085543.00,8959.20626798,S,16337.15173022,E,1,05,2.87,10.0000,M,00.000,M,,*4D
$GPVTG,285.54,T,,M,107.970,N,199.960,K,A*35
$GPGGA,085544.00,8959.20396912,S,16545.80143394,E,1,05,2.87,10.0000,M,00.000,M,,*4A
$GPVTG,282.36,T,,M,107.970,N,199.960,K,A*36
$GPGGA,085545.00,8959.20221046,S,16754.28240108,E,1,05,2.87,10.0000,M,00.000,M,,*49
$GPVTG,279.17,T,,M,107.970,N,199.960,K,A*31
$GPGGA,085546.00,8959.20099384,S,17002.64045482,E,1,05,2.87,10.0000,M,00.000,M,,*4B
$GPVTG,275.99,T,,M,107.970,N,199.960,K,A*3B
$GPGGA,085547.00,8959.20032054,S,17210.92078947,E,1,05,2.87,10.0000,M,00.000,M,,*47
$GPVTG,272.81,T,,M,107.970,N,199.960,K,A*35
$GPGGA,085548.00,8959.20019127,S,17419.16820306,E,1,05,2.87,10.0000,M,00.000,M,,*4D
$GPVTG,089.63,T,,M,107.970,N,199.960,K,A*3F
$GPGGA,085549.00,8959.20060615,S,17627.42732610,E,1,05,2.87,10.0000,M,00.000,M,,*44
$GPVTG,086.44,T,,M,107.970,N,199.960,K,A*35
$GPGGA,085550.00,8959.20156475,S,17835.74284868,E,1,05,2.87,10.0000,M,00.000,M,,*4D
$GPVTG,083.26,T,,M,107.970,N,199.960,K,A*34
$GPGGA,085551.00,8959.20306608,S,17915.84025189,W,1,05,2.87,10.0000,M,00.000,M,,*52
$GPVTG,080.08,T,,M,107.970,N,199.960,K,A*3B
$GPGGA,085552.00,8959.20510855,S,17707.27648058,W,1,05,2.87,10.0000,M,00.000,M,,*52
$GPVTG,076.90,T,,M,107.970,N,199.960,K,A*33
$GPGGA,085553.00,8959.20769003,S,17458.51958893,W,1,05,2.87,10.0000,M,00.000,M,,*5D
$GPVTG,073.71,T,,M,107.970,N,199.960,K,A*39
$GPGGA,085554.00,8959.21080780,S,17249.52233188,W,1,05,2.87,10.0000,M,00.000,M,,*57
$GPVTG,070.53,T,,M,107.970,N,199.960,K,A*3A
$GPGGA,085555.00,8959.21445856,S,17040.23621453,W,1,05,2.87,10.0000,M,00.000,M,,*56
$GPVTG,067.35,T,,M,107.970,N,199.960,K,A*3C
$GPGGA,085556.00,8959.21863844,S,16830.61122624,W,1,05,2.87,10.0000,M,00.000,M,,*50
$GPVTG,064.17,T,,M,107.970,N,199.960,K,A*3F
$GPGGA,085557.00,8959.22334298,S,16620.59555918,W,1,05,2.87,10.0000,M,00.000,M,,*50
$GPVTG,060.98,T,,M,107.970,N,199.960,K,A*3C
$GPGGA,085558.00,8959.22856711,S,16410.13530833,W,1,05,2.87,10.0000,M,00.000,M,,*50
$GPVTG,057.80,T,,M,107.970,N,199.960,K,A*31
$GPGGA,085559.00,8959.23430520,S,16159.17414949,W,1,05,2.87,10.0000,M,00.000,M,,*5B
$GPVTG,054.62,T,,M,107.970,N,199.960,K,A*3E
$GPGGA,085600.00,8959.24055097,S,15947.65299161,W,1,05,2.87,10.0000,M,00.000,M,,*5D
$GPVTG,051.44,T,,M,107.970,N,199.960,K,A*3F
$GPGGA,085601.00,8959.24729755,S,15735.50959937,W,1,05,2.87,10.0000,M,00.000,M,,*58
$GPVTG,048.25,T,,M,107.970,N,199.960,K,A*30
$GPGGA,085602.00,8959.25453743,S,15522.67818133,W,1,05,2.87,10.0000,M,00.000,M,,*5B
$GPVTG,045.07,T,,M,107.970,N,199.960,K,A*3D
$GPGGA,085603.00,8959.26226245,S,15309.08893873,W,1,05,2.87,10.0000,M,00.000,M,,*56
$GPVTG,041.89,T,,M,107.970,N,199.960,K,A*3F
$GPGGA,085604.00,8959.27046382,S,15054.66756890,W,1,05,2.87,10.0000,M,00.000,M,,*56
$GPVTG,038.71,T,,M,107.970,N,199.960,K,A*36
$GPGGA,085605.00,8959.27913203,S,14839.33471716,W,1,05,2.87,10.0000,M,00.000,M,,*53
$GPVTG,035.52,T,,M,107.970,N,199.960,K,A*3A
$GPGGA,085606.00,8959.28825692,S,14623.00536970,W,1,05,2.87,10.0000,M,00.000,M,,*5E
$GPVTG,032.34,T,,M,107.970,N,199.960,K,A*3D
$GPGGA,085607.00,8959.29782756,S,14405.58817935,W,1,05,2.87,10.0000,M,00.000,M,,*51
$GPVTG,029.16,T,,M,107.970,N,199.960,K,A*37
$GPGGA,085608.00,8959.30783231,S,14146.98471510,W,1,05,2.87,10.0000,M,00.000,M,,*5A
$GPVTG,025.98,T,,M,107.970,N,199.960,K,A*3D
$GPGGA,085609.00,8959.31825871,S,13927.08862484,W,1,05,2.87,10.0000,M,00.000,M,,*54
$GPVTG,022.79,T,,M,107.970,N,199.960,K,A*35
$GPGGA,085610.00,8959.32909349,S,13705.78470003,W,1,05,2.87,10.0000,M,00.000,M,,*5D
$GPVTG,019.61,T,,M,107.970,N,199.960,K,A*34
$GPGGA,085611.00,8959.34032252,S,13442.94782901,W,1,05,2.87,10.0000,M,00.000,M,,*57
$GPVTG,016.43,T,,M,107.970,N,199.960,K,A*3B
$GPGGA,085612.00,8959.35193074,S,13218.44182498,W,1,05,2.87,10.0000,M,00.000,M,,*56
$GPVTG,013.25,T,,M,107.970,N,199.960,K,A*3E
$GPGGA,085613.00,8959.36390209,S,12952.11811257,W,1,05,2.87,10.0000,M,00.000,M,,*5F
$GPVTG,010.06,T,,M,107.970,N,199.960,K,A*3C
$GPGGA,085614.00,8959.37621947,S,12723.81425608,W,1,05,2.87,10.0000,M,00.000,M,,*53
$GPVTG,006.88,T,,M,107.970,N,199.960,K,A*3D
$GPGGA,085615.00,8959.38886466,S,12453.35231108,W,1,05,2.87,10.0000,M,00.000,M,,*5F
$GPVTG,003.70,T,,M,107.970,N,199.960,K,A*3F
$GPGGA,085616.00,8959.40181817,S,12220.53698025,W,1,05,2.87,10.0000,M,00.000,M,,*5C
$GPVTG,000.52,T,,M,107.970,N,199.960,K,A*3C
$GPGGA,085617.00,8959.41505920,S,11945.15355457,W,1,05,2.87,10.0000,M,00.000,M,,*5D
$GPVTG,357.33,T,,M,107.970,N,199.960,K,A*3A
$GPGGA,085618.00,8959.42856544,S,11706.96562186,W,1,05,2.87,10.0000,M,00.000,M,,*5D
$GPVTG,354.15,T,,M,107.970,N,199.960,K,A*3D
$GPGGA,085619.00,8959.44231298,S,11425.71252786,W,1,05,2.87,10.0000,M,00.000,M,,*5E
$GPVTG,350.97,T,,M,107.970,N,199.960,K,A*33
$GPGGA,085620.00,8959.45627609,S,11141.10658090,W,1,05,2.87,10.0000,M,00.000,M,,*54
$GPVTG,347.79,T,,M,107.970,N,199.960,K,A*35
$GPGGA,085621.00,8959.47042703,S,10852.83000111,W,1,05,2.87,10.0000,M,00.000,M,,*5A
$GPVTG,344.60,T,,M,107.970,N,199.960,K,A*3E
$GPGGA,085622.00,8959.48473583,S,10600.53163188,W,1,05,2.87,10.0000,M,00.000,M,,*5A
$GPVTG,341.42,T,,M,107.970,N,199.960,K,A*3B
$GPGGA,085623.00,8959.49916997,S,10303.82345612,W,1,05,2.87,10.0000,M,00.000,M,,*55
$GPVTG,338.24,T,,M,107.970,N,199.960,K,A*35
$GPGGA,085624.00,8959.51369411,S,10002.27699827,W,1,05,2.87,10.0000,M,00.000,M,,*5B
$GPVTG,335.06,T,,M,107.970,N,199.960,K,A*38
$GPGGA,085625.00,8959.52826968,S,09655.41974887,W,1,05,2.87,10.0000,M,00.000,M,,*50
$GPVTG,331.88,T,,M,107.970,N,199.960,K,A*3A
$GPGGA,085626.00,8959.54285449,S,09342.73182911,W,1,05,2.87,10.0000,M,00.000,M,,*55
$GPVTG,328.69,T,,M,107.970,N,199.960,K,A*3D
$GPGGA,085627.00,8959.55740225,S,09023.64322601,W,1,05,2.87,10.0000,M,00.000,M,,*51
$GPVTG,325.51,T,,M,107.970,N,199.960,K,A*3B
$GPGGA,085628.00,8959.57186202,S,08657.53208521,W,1,05,2.87,10.0000,M,00.000,M,,*5D
$GPVTG,322.33,T,,M,107.970,N,199.960,K,A*38
$GPGGA,085629.00,8959.58617768,S,08323.72475826,W,1,05,2.87,10.0000,M,00.000,M,,*56
$GPVTG,319.15,T,,M,107.970,N,199.960,K,A*34
$GPGGA,085630.00,8959.60028720,S,07941.49857258,W,1,05,2.87,10.0000,M,00.000,M,,*55
$GPVTG,315.96,T,,M,107.970,N,199.960,K,A*33
$GPGGA,085631.00,8959.61412212,S,07550.08862959,W,1,05,2.87,10.0000,M,00.000,M,,*59
$GPVTG,312.78,T,,M,107.970,N,199.960,K,A*34
$GPGGA,085632.00,8959.62760679,S,07148.70032513,W,1,05,2.87,10.0000,M,00.000,M,,*5B
$GPVTG,309.60,T,,M,107.970,N,199.960,K,A*37
$GPGGA,085633.00,8959.64065790,S,06736.52968615,W,1,05,2.87,10.0000,M,00.000,M,,*55
$GPVTG,306.42,T,,M,107.970,N,199.960,K,A*38
$GPGGA,085634.00,8959.65318402,S,06312.79393668,W,1,05,2.87,10.0000,M,00.000,M,,*5D
$GPVTG,303.23,T,,M,107.970,N,199.960,K,A*3A
$GPGGA,085635.00,8959.66508551,S,05836.77477765,W,1,05,2.87,10.0000,M,00.000,M,,*5E
$GPVTG,300.05,T,,M,107.970,N,199.960,K,A*3D
$GPGGA,085636.00,8959.67625481,S,05347.87642530,W,1,05,2.87,10.0000,M,00.000,M,,*58
$GPVTG,296.87,T,,M,107.970,N,199.960,K,A*39
$GPGGA,085637.00,8959.68657741,S,04845.69914405,W,1,05,2.87,10.0000,M,00.000,M,,*5F
$GPVTG,293.69,T,,M,107.970,N,199.960,K,A*3C
$GPGGA,085638.00,8959.69593371,S,04330.12644606,W,1,05,2.87,10.0000,M,00.000,M,,*53
$GPVTG,290.50,T,,M,107.970,N,199.960,K,A*35
$GPGGA,085639.00,8959.70420186,S,03801.42007489,W,1,05,2.87,10.0000,M,00.000,M,,*56
$GPVTG,287.32,T,,M,107.970,N,199.960,K,A*37
$GPGGA,085640.00,8959.71126187,S,03220.31157218,W,1,05,2.87,10.0000,M,00.000,M,,*5C
$GPVTG,284.14,T,,M,107.970,N,199.960,K,A*30
$GPGGA,085641.00,8959.71700081,S,02628.07371927,W,1,05,2.87,10.0000,M,00.000,M,,*51
$GPVTG,280.96,T,,M,107.970,N,199.960,K,A*3E
$GPGGA,085642.00,8959.72131888,S,02026.55157672,W,1,05,2.87,10.0000,M,00.000,M,,*52
$GPVTG,277.77,T,,M,107.970,N,199.960,K,A*39
$GPGGA,085643.00,8959.72413580,S,01418.13400808,W,1,05,2.87,10.0000,M,00.000,M,,*5F
$GPVTG,274.59,T,,M,107.970,N,199.960,K,A*36
$GPGGA,085644.00,8959.72539659,S,00805.65464736,W,1,05,2.87,10.0000,M,00.000,M,,*56
$GPVTG,271.41,T,,M,107.970,N,199.960,K,A*3A
$GPGGA,085645.00,8959.72507594,S,00152.22596101,W,1,05,2.87,10.0000,M,00.000,M,,*5E
$GPVTG,088.23,T,,M,107.970,N,199.960,K,A*3A
$GPGGA,085646.00,8959.72318034,S,00418.97258300,E,1,05,2.87,10.0000,M,00.000,M,,*4B
$GPVTG,085.04,T,,M,107.970,N,199.960,K,A*32
$GPGGA,085647.00,8959.71974749,S,01024.91781080,E,1,05,2.87,10.0000,M,00.000,M,,*42
$GPVTG,081.86,T,,M,107.970,N,199.960,K,A*3C
$GPGGA,085648.00,8959.71484325,S,01622.93965556,E,1,05,2.87,10.0000,M,00.000,M,,*49
$GPVTG,078.68,T,,M,107.970,N,199.960,K,A*3A
$GPGGA,085649.00,8959.70855655,S,02210.86157083,E,1,05,2.87,10.0000,M,00.000,M,,*4D
$GPVTG,075.50,T,,M,107.970,N,199.960,K,A*3C
$GPGGA,085650.00,8959.70099327,S,02747.07048818,E,1,05,2.87,10.0000,M,00.000,M,,*46
$GPVTG,072.31,T,,M,107.970,N,199.960,K,A*3C
$GPGGA,085651.00,8959.69226991,S,03310.51924413,E,1,05,2.87,10.0000,M,00.000,M,,*4E
$GPVTG,069.13,T,,M,107.970,N,199.960,K,A*36
$GPGGA,085652.00,8959.68250775,S,03820.67667593,E,1,05,2.87,10.0000,M,00.000,M,,*45
$GPVTG,065.95,T,,M,107.970,N,199.960,K,A*34
$GPGGA,085653.00,8959.67182818,S,04317.44571529,E,1,05,2.87,10.0000,M,00.000,M,,*4F
$GPVTG,062.77,T,,M,107.970,N,199.960,K,A*3F
$GPGGA,085654.00,8959.66034901,S,04801.06872038,E,1,05,2.87,10.0000,M,00.000,M,,*4D
$GPVTG,059.58,T,,M,107.970,N,199.960,K,A*3A
$GPGGA,085655.00,8959.64818211,S,05232.03461490,E,1,05,2.87,10.0000,M,00.000,M,,*44
$GPVTG,056.40,T,,M,107.970,N,199.960,K,A*3C
$GPGGA,085656.00,8959.63543189,S,05650.99677578,E,1,05,2.87,10.0000,M,00.000,M,,*40
$GPVTG,053.22,T,,M,107.970,N,199.960,K,A*3D
$GPGGA,085657.00,8959.62219470,S,06058.70573009,E,1,05,2.87,10.0000,M,00.000,M,,*45
$GPVTG,050.04,T,,M,107.970,N,199.960,K,A*3A
$GPGGA,085658.00,8959.60855863,S,06455.95727862,E,1,05,2.87,10.0000,M,00.000,M,,*40
$GPVTG,046.85,T,,M,107.970,N,199.960,K,A*34
$GPGGA,085659.00,8959.59460384,S,06843.55464981,E,1,05,2.87,10.0000,M,00.000,M,,*4C
$GPVTG,043.67,T,,M,107.970,N,199.960,K,A*3D
$GPGGA,085700.00,8959.58040299,S,07222.28237871,E,1,05,2.87,10.0000,M,00.000,M,,*43
$GPVTG,040.49,T,,M,107.970,N,199.960,K,A*32
$GPGGA,085701.00,8959.56602186,S,07552.88941086,E,1,05,2.87,10.0000,M,00.000,M,,*41
$GPVTG,037.31,T,,M,107.970,N,199.960,K,A*3D
$GPGGA,085702.00,8959.55152001,S,07916.07912885,E,1,05,2.87,10.0000,M,00.000,M,,*4B
$GPVTG,034.12,T,,M,107.970,N,199.960,K,A*3F
$GPGGA,085703.00,8959.53695138,S,08232.50436634,E,1,05,2.87,10.0000,M,00.000,M,,*44
$GPVTG,030.94,T,,M,107.970,N,199.960,K,A*35
$GPGGA,085704.00,8959.52236498,S,08542.76587723,E,1,05,2.87,10.0000,M,00.000,M,,*48
$GPVTG,027.76,T,,M,107.970,N,199.960,K,A*3F
$GPGGA,085705.00,8959.50780537,S,08847.41309862,E,1,05,2.87,10.0000,M,00.000,M,,*41
$GPVTG,024.58,T,,M,107.970,N,199.960,K,A*30
$GPGGA,085706.00,8959.49331321,S,09146.94635693,E,1,05,2.87,10.0000,M,00.000,M,,*4E
$GPVTG,021.39,T,,M,107.970,N,199.960,K,A*32
$GPGGA,085707.00,8959.47892572,S,09441.81991254,E,1,05,2.87,10.0000,M,00.000,M,,*4B
$GPVTG,018.21,T,,M,107.970,N,199.960,K,A*31
$GPGGA,085708.00,8959.46467706,S,09732.44542500,E,1,05,2.87,10.0000,M,00.000,M,,*48
$GPVTG,015.03,T,,M,107.970,N,199.960,K,A*3C
$GPGGA,085709.00,8959.45059869,S,10019.19555861,E,1,05,2.87,10.0000,M,00.000,M,,*47
$GPVTG,011.85,T,,M,107.970,N,199.960,K,A*36
$GPGGA,085710.00,8959.43671963,S,10302.40754696,E,1,05,2.87,10.0000,M,00.000,M,,*4E
$GPVTG,008.66,T,,M,107.970,N,199.960,K,A*33
$GPGGA,085711.00,8959.42306679,S,10542.38660493,E,1,05,2.87,10.0000,M,00.000,M,,*43
$GPVTG,005.48,T,,M,107.970,N,199.960,K,A*32
$GPGGA,085712.00,8959.40966514,S,10819.40912446,E,1,05,2.87,10.0000,M,00.000,M,,*48
$GPVTG,002.30,T,,M,107.970,N,199.960,K,A*3A
$GPGGA,085713.00,8959.39648055,S,11053.56355238,E,1,05,2.87,10.0000,M,00.000,M,,*42
$GPVTG,000.00,T,,M,107.970,N,199.960,K,A*3B
$GPGGA,085714.00,8959.38251005,S,11322.04381428,E,1,05,2.87,10.0000,M,00.000,M,,*41
$GPVTG,000.00,T,,M,107.970,N,199.960,K,A*3B
$GPGGA,085715.00,8959.38251005,S,11322.04381428,E,1,05,2.87,10.00,M,00.000,M,,*40
$GPVTG,000.00,T,,M,000.108,N,000.200,K,A*36
$GPGGA,085716.00,8959.38251005,S,11322.04381428,E,1,05,2.87,10.00,M,00.000,M,,*43
$GPVTG,000.00,T,,M,000.108,N,000.200,K,A*36
$GPGGA,085717.00,8959.38251005,S,11322.04381428,E,1,05,2.87,10.00,M,00.000,M,,*42
$GPVTG,000.00,T,,M,000.108,N,000.200,K,A*36
$GPGGA,085718.00,8959.38251005,S,11322.04381428,E,1,05,2.87,10.00,M,00.000,M,,*4D
$GPVTG,000.00,T,,M,000.108,N,000.200,K,A*36
$GPGGA,085719.00,8959.38251005,S,11322.04381428,E,1,05,2.87,10.00,M,00.000,M,,*4C
$GPVTG,000.00,T,,M,000.108,N,000.200,K,A*36
$GPGGA,085720.00,8959.38251005,S,11322.04381428,E,1,05,2.87,10.00,M,00.000,M,,*46
$GPVTG,000.00,T,,M,000.108,N,000.200,K,A*36
